{
"type": "FeatureCollection",
"crs": { "type": "name", "properties": { "name": "urn:ogc:def:crs:OGC:1.3:CRS84" } },
"features": [
{ "type": "Feature", "properties": { "Name": "UPM Segrate", "description": "Piazzetta dei Fiori, Segrate (MI)", "timestamp": null, "begin": null, "end": null, "altitudeMode": null, "tessellate": -1.0, "extrude": 0.0, "visibility": -1.0, "drawOrder": null, "icon": null }, "geometry": { "type": "Point", "coordinates": [ 9.29109367225397, 45.498270759504003, 0.0 ] } },
{ "type": "Feature", "properties": { "Name": "UPM Sedriano", "description": "Via Gramsci, 1, Sedriano (MI)", "timestamp": null, "begin": null, "end": null, "altitudeMode": null, "tessellate": -1.0, "extrude": 0.0, "visibility": -1.0, "drawOrder": null, "icon": null }, "geometry": { "type": "Point", "coordinates": [ 8.969313465144207, 45.491082637696792, 0.0 ] } },
{ "type": "Feature", "properties": { "Name": "Una Bottega di Rione", "description": "Via Maggiore, 24, Lecco (LC)", "timestamp": null, "begin": null, "end": null, "altitudeMode": null, "tessellate": -1.0, "extrude": 0.0, "visibility": -1.0, "drawOrder": null, "icon": null }, "geometry": { "type": "Point", "coordinates": [ 9.398649403068157, 45.844733371660382, 0.0 ] } },
{ "type": "Feature", "properties": { "Name": "UPM Bergamo", "description": "Via Quarenghi, 36, Bergamo (BG)", "timestamp": null, "begin": null, "end": null, "altitudeMode": null, "tessellate": -1.0, "extrude": 0.0, "visibility": -1.0, "drawOrder": null, "icon": null }, "geometry": { "type": "Point", "coordinates": [ 9.667270454423578, 45.690758462502238, 0.0 ] } },
{ "type": "Feature", "properties": { "Name": "UPM Bergamo", "description": "Via Borgo Santa Caterina, 66, Bergamo (BG)", "timestamp": null, "begin": null, "end": null, "altitudeMode": null, "tessellate": -1.0, "extrude": 0.0, "visibility": -1.0, "drawOrder": null, "icon": null }, "geometry": { "type": "Point", "coordinates": [ 9.677335974141935, 45.698258290997529, 0.0 ] } },
{ "type": "Feature", "properties": { "Name": "UPM Mantova (??)", "description": "Via Fossamana, 8, Mantova (MN)", "timestamp": null, "begin": null, "end": null, "altitudeMode": null, "tessellate": -1.0, "extrude": 0.0, "visibility": -1.0, "drawOrder": null, "icon": null }, "geometry": { "type": "Point", "coordinates": [ 10.83100340035015, 45.187321100372053, 0.0 ] } },
{ "type": "Feature", "properties": { "Name": "Una Betulla, UPM Mezzana Bigli", "description": "Via Colonna, 1, Mezzana Bigli (PV)", "timestamp": null, "begin": null, "end": null, "altitudeMode": null, "tessellate": -1.0, "extrude": 0.0, "visibility": -1.0, "drawOrder": null, "icon": null }, "geometry": { "type": "Point", "coordinates": [ 8.848280804826562, 45.059498755996508, 0.0 ] } },
{ "type": "Feature", "properties": { "Name": "UPM Bolzano", "description": "Via verona, 6, Bolzano (BZ)", "timestamp": null, "begin": null, "end": null, "altitudeMode": null, "tessellate": -1.0, "extrude": 0.0, "visibility": -1.0, "drawOrder": null, "icon": null }, "geometry": { "type": "Point", "coordinates": [ 11.34465203644052, 46.493856184836901, 0.0 ] } },
{ "type": "Feature", "properties": { "Name": "UPM Bassano del Grappa", "description": "Via S. Sebastiano, 15, Bassano del Grappa (VI)", "timestamp": null, "begin": null, "end": null, "altitudeMode": null, "tessellate": -1.0, "extrude": 0.0, "visibility": -1.0, "drawOrder": null, "icon": null }, "geometry": { "type": "Point", "coordinates": [ 11.7335472856526, 45.773544817422277, 0.0 ] } },
{ "type": "Feature", "properties": { "Name": "UPM Correggio", "description": "Galleria Politeama, 26, Correggio (RE)", "timestamp": null, "begin": null, "end": null, "altitudeMode": null, "tessellate": -1.0, "extrude": 0.0, "visibility": -1.0, "drawOrder": null, "icon": null }, "geometry": { "type": "Point", "coordinates": [ 10.78122927586036, 44.771669759478428, 0.0 ] } },
{ "type": "Feature", "properties": { "Name": "UPM Reggio Emilia", "description": "Via Roma, 55, Reggio Emilia (RE)", "timestamp": null, "begin": null, "end": null, "altitudeMode": null, "tessellate": -1.0, "extrude": 0.0, "visibility": -1.0, "drawOrder": null, "icon": null }, "geometry": { "type": "Point", "coordinates": [ 10.63580385469626, 44.701447479042862, 0.0 ] } },
{ "type": "Feature", "properties": { "Name": "UPM Ferrara", "description": "Via Giuoco del Pallone, 12, Ferrara (FE)", "timestamp": null, "begin": null, "end": null, "altitudeMode": null, "tessellate": -1.0, "extrude": 0.0, "visibility": -1.0, "drawOrder": null, "icon": null }, "geometry": { "type": "Point", "coordinates": [ 11.621638564862341, 44.831478311320431, 0.0 ] } },
{ "type": "Feature", "properties": { "Name": "UPM Bologna", "description": "Via Alessandro Tiarini, 1, Bologna (BO)", "timestamp": null, "begin": null, "end": null, "altitudeMode": null, "tessellate": -1.0, "extrude": 0.0, "visibility": -1.0, "drawOrder": null, "icon": null }, "geometry": { "type": "Point", "coordinates": [ 11.346094876718411, 44.508372224139222, 0.0 ] } },
{ "type": "Feature", "properties": { "Name": "UPM San Giovanni Bianco", "description": "Piazza Zignoni, 11, San Giovanni Bianco (BG)", "timestamp": null, "begin": null, "end": null, "altitudeMode": null, "tessellate": -1.0, "extrude": 0.0, "visibility": -1.0, "drawOrder": null, "icon": null }, "geometry": { "type": "Point", "coordinates": [ 9.652514131233868, 45.875006528880391, 0.0 ] } },
{ "type": "Feature", "properties": { "Name": "Un Nocciolo UPM Genova", "description": "Via Leonardo Montaldo, 146, Genova (GE)", "timestamp": null, "begin": null, "end": null, "altitudeMode": null, "tessellate": -1.0, "extrude": 0.0, "visibility": -1.0, "drawOrder": null, "icon": null }, "geometry": { "type": "Point", "coordinates": [ 8.9484926168975, 44.415145292934717, 0.0 ] } },
{ "type": "Feature", "properties": { "Name": "UPM Genova", "description": "Via del Commercio, 7, Genova (GE)", "timestamp": null, "begin": null, "end": null, "altitudeMode": null, "tessellate": -1.0, "extrude": 0.0, "visibility": -1.0, "drawOrder": null, "icon": null }, "geometry": { "type": "Point", "coordinates": [ 9.034196174483908, 44.386193200934052, 0.0 ] } },
{ "type": "Feature", "properties": { "Name": "UPM Chieri", "description": "Via Andezeno, 41, Chieri (TO)", "timestamp": null, "begin": null, "end": null, "altitudeMode": null, "tessellate": -1.0, "extrude": 0.0, "visibility": -1.0, "drawOrder": null, "icon": null }, "geometry": { "type": "Point", "coordinates": [ 7.833684875805524, 45.019095370448632, 0.0 ] } },
{ "type": "Feature", "properties": { "Name": "UPM Firenze", "description": "Piazza Torquato Tasso, 3, Firenze (FI)", "timestamp": null, "begin": null, "end": null, "altitudeMode": null, "tessellate": -1.0, "extrude": 0.0, "visibility": -1.0, "drawOrder": null, "icon": null }, "geometry": { "type": "Point", "coordinates": [ 11.24099306060576, 43.767753277492197, 0.0 ] } },
{ "type": "Feature", "properties": { "Name": "UPM Roma", "description": "Via Giovan Battista Gandino, 45, Roma (ROMA)", "timestamp": null, "begin": null, "end": null, "altitudeMode": null, "tessellate": -1.0, "extrude": 0.0, "visibility": -1.0, "drawOrder": null, "icon": null }, "geometry": { "type": "Point", "coordinates": [ 12.437082527093679, 41.901754648563092, 0.0 ] } },
{ "type": "Feature", "properties": { "Name": "UPM Roma", "description": "Via dei Volsci, 121, Roma (ROMA)", "timestamp": null, "begin": null, "end": null, "altitudeMode": null, "tessellate": -1.0, "extrude": 0.0, "visibility": -1.0, "drawOrder": null, "icon": null }, "geometry": { "type": "Point", "coordinates": [ 12.51720049489723, 41.899069884553967, 0.0 ] } },
{ "type": "Feature", "properties": { "Name": "UPM Roma", "description": "Via dei Campani, 65\/67, Roma (ROMA)", "timestamp": null, "begin": null, "end": null, "altitudeMode": null, "tessellate": -1.0, "extrude": 0.0, "visibility": -1.0, "drawOrder": null, "icon": null }, "geometry": { "type": "Point", "coordinates": [ 12.51548200312501, 41.895036622367073, 0.0 ] } },
{ "type": "Feature", "properties": { "Name": "UPM Roma", "description": "Via S. Giorgio Morgeto, 100, Roma (ROMA)", "timestamp": null, "begin": null, "end": null, "altitudeMode": null, "tessellate": -1.0, "extrude": 0.0, "visibility": -1.0, "drawOrder": null, "icon": null }, "geometry": { "type": "Point", "coordinates": [ 12.58717205541182, 41.836006458768857, 0.0 ] } },
{ "type": "Feature", "properties": { "Name": "UPM Forlì", "description": "Via Bolognesi, 47, Forlì (FC)", "timestamp": null, "begin": null, "end": null, "altitudeMode": null, "tessellate": -1.0, "extrude": 0.0, "visibility": -1.0, "drawOrder": null, "icon": null }, "geometry": { "type": "Point", "coordinates": [ 12.04570686139089, 44.21488181544963, 0.0 ] } },
{ "type": "Feature", "properties": { "Name": "UPM Cesena", "description": "Via Guido Marinelli, 54, Cesena (FC)", "timestamp": null, "begin": null, "end": null, "altitudeMode": null, "tessellate": -1.0, "extrude": 0.0, "visibility": -1.0, "drawOrder": null, "icon": null }, "geometry": { "type": "Point", "coordinates": [ 12.24708407800529, 44.141215337797, 0.0 ] } },
{ "type": "Feature", "properties": { "Name": "UPM Bagnacavallo", "description": "Largo de Gasperi, 11\/A, Bagnacavallo (RA)", "timestamp": null, "begin": null, "end": null, "altitudeMode": null, "tessellate": -1.0, "extrude": 0.0, "visibility": -1.0, "drawOrder": null, "icon": null }, "geometry": { "type": "Point", "coordinates": [ 11.98014044055993, 44.415881676502188, 0.0 ] } },
{ "type": "Feature", "properties": { "Name": "Una Bottega nel Borgo, UPM Ravenna", "description": "Via Maggiore, 149, Ravenna (RA)", "timestamp": null, "begin": null, "end": null, "altitudeMode": null, "tessellate": -1.0, "extrude": 0.0, "visibility": -1.0, "drawOrder": null, "icon": null }, "geometry": { "type": "Point", "coordinates": [ 12.19006820188528, 44.42107658480267, 0.0 ] } },
{ "type": "Feature", "properties": { "Name": "UPM Rimini", "description": "Via Massimo d'Azeglio, 6, Rimini (RN)", "timestamp": null, "begin": null, "end": null, "altitudeMode": null, "tessellate": -1.0, "extrude": 0.0, "visibility": -1.0, "drawOrder": null, "icon": null }, "geometry": { "type": "Point", "coordinates": [ 12.564371066948199, 44.061130942161071, 0.0 ] } },
{ "type": "Feature", "properties": { "Name": "Un Olmo, UPM Riccione", "description": "Corso Fratelli Cervi, 222, Riccione (RN)", "timestamp": null, "begin": null, "end": null, "altitudeMode": null, "tessellate": -1.0, "extrude": 0.0, "visibility": -1.0, "drawOrder": null, "icon": null }, "geometry": { "type": "Point", "coordinates": [ 12.65905679417784, 43.993244986361063, 0.0 ] } },
{ "type": "Feature", "properties": { "Name": "UPM Fano", "description": "Via Forestieri, Fano (PU)", "timestamp": null, "begin": null, "end": null, "altitudeMode": null, "tessellate": -1.0, "extrude": 0.0, "visibility": -1.0, "drawOrder": null, "icon": null }, "geometry": { "type": "Point", "coordinates": [ 13.01982982765079, 43.844186032010441, 0.0 ] } },
{ "type": "Feature", "properties": { "Name": "UPM Pesaro", "description": "Via Armando Diaz, 34, Pesaro (PU)", "timestamp": null, "begin": null, "end": null, "altitudeMode": null, "tessellate": -1.0, "extrude": 0.0, "visibility": -1.0, "drawOrder": null, "icon": null }, "geometry": { "type": "Point", "coordinates": [ 12.91289497918968, 43.908371029274022, 0.0 ] } },
{ "type": "Feature", "properties": { "Name": "UPM Urbino", "description": "Via Pozzo Nuovo, 4, Urbino (PU)", "timestamp": null, "begin": null, "end": null, "altitudeMode": null, "tessellate": -1.0, "extrude": 0.0, "visibility": -1.0, "drawOrder": null, "icon": null }, "geometry": { "type": "Point", "coordinates": [ 12.63700388932749, 43.726532689004543, 0.0 ] } },
{ "type": "Feature", "properties": { "Name": "UPM Macerata", "description": "Borgo Sforzacosta, 101, Macerata (MC)", "timestamp": null, "begin": null, "end": null, "altitudeMode": null, "tessellate": -1.0, "extrude": 0.0, "visibility": -1.0, "drawOrder": null, "icon": null }, "geometry": { "type": "Point", "coordinates": [ 13.41635794234589, 43.256496435605037, 0.0 ] } },
{ "type": "Feature", "properties": { "Name": "UPM Porto Recanati", "description": "Via Paolo Sarpi, 18, Porto Recanati (MC)", "timestamp": null, "begin": null, "end": null, "altitudeMode": null, "tessellate": -1.0, "extrude": 0.0, "visibility": -1.0, "drawOrder": null, "icon": null }, "geometry": { "type": "Point", "coordinates": [ 13.66244785987946, 43.43332662043106, 0.0 ] } },
{ "type": "Feature", "properties": { "Name": "UPM San Benedetto del Tronto", "description": "Via Piemonte, 103, San Benedetto del Tronto (AP)", "timestamp": null, "begin": null, "end": null, "altitudeMode": null, "tessellate": -1.0, "extrude": 0.0, "visibility": -1.0, "drawOrder": null, "icon": null }, "geometry": { "type": "Point", "coordinates": [ 13.885409900348479, 42.945681299950699, 0.0 ] } },
{ "type": "Feature", "properties": { "Name": "UPM Grottammare", "description": "Via Alessandro Manzoni, 52, Grottammare (AP)", "timestamp": null, "begin": null, "end": null, "altitudeMode": null, "tessellate": -1.0, "extrude": 0.0, "visibility": -1.0, "drawOrder": null, "icon": null }, "geometry": { "type": "Point", "coordinates": [ 13.87570869990088, 42.963499400074816, 0.0 ] } },
{ "type": "Feature", "properties": { "Name": "UPM Porto Sant'Elpidio", "description": "Via Trieste, 235, Porto Sant'Elpidio (FM)", "timestamp": null, "begin": null, "end": null, "altitudeMode": null, "tessellate": -1.0, "extrude": 0.0, "visibility": -1.0, "drawOrder": null, "icon": null }, "geometry": { "type": "Point", "coordinates": [ 13.754108599256311, 43.270471800055553, 0.0 ] } },
{ "type": "Feature", "properties": { "Name": "UPM Fermo", "description": "Piazzale Azzolino, 13, Fermo (FM)", "timestamp": null, "begin": null, "end": null, "altitudeMode": null, "tessellate": -1.0, "extrude": 0.0, "visibility": -1.0, "drawOrder": null, "icon": null }, "geometry": { "type": "Point", "coordinates": [ 13.716870880763951, 43.162364604654968, 0.0 ] } },
{ "type": "Feature", "properties": { "Name": "UPM Latina", "description": "Via Isonzo, 194, latina (LT)", "timestamp": null, "begin": null, "end": null, "altitudeMode": null, "tessellate": -1.0, "extrude": 0.0, "visibility": -1.0, "drawOrder": null, "icon": null }, "geometry": { "type": "Point", "coordinates": [ 12.908470453661939, 41.442529398892709, 0.0 ] } },
{ "type": "Feature", "properties": { "Name": "UPM Giulianova", "description": "Via Luigi Migliori, Giulianova (TE)", "timestamp": null, "begin": null, "end": null, "altitudeMode": null, "tessellate": -1.0, "extrude": 0.0, "visibility": -1.0, "drawOrder": null, "icon": null }, "geometry": { "type": "Point", "coordinates": [ 13.95482432464607, 42.749700200155061, 0.0 ] } },
{ "type": "Feature", "properties": { "Name": "UPM Civitanova Marche", "description": "Via Giuseppe Mazzini, 74, Civitanova Marche (MC)", "timestamp": null, "begin": null, "end": null, "altitudeMode": null, "tessellate": -1.0, "extrude": 0.0, "visibility": -1.0, "drawOrder": null, "icon": null }, "geometry": { "type": "Point", "coordinates": [ 13.732954088088009, 43.30649599817032, 0.0 ] } },
{ "type": "Feature", "properties": { "Name": "UPM Ancona", "description": "Via S. Martino, 9, Ancona (AN)", "timestamp": null, "begin": null, "end": null, "altitudeMode": null, "tessellate": -1.0, "extrude": 0.0, "visibility": -1.0, "drawOrder": null, "icon": null }, "geometry": { "type": "Point", "coordinates": [ 13.512722593770169, 43.616537868029567, 0.0 ] } },
{ "type": "Feature", "properties": { "Name": "UPM Montecosaro Scalo", "description": "Via Don Bosco, 33, Montecosaro Scalo (MC)", "timestamp": null, "begin": null, "end": null, "altitudeMode": null, "tessellate": -1.0, "extrude": 0.0, "visibility": -1.0, "drawOrder": null, "icon": null }, "geometry": { "type": "Point", "coordinates": [ 13.65109600005875, 43.285165300090192, 0.0 ] } },
{ "type": "Feature", "properties": { "Name": "Un Castagno, UPM Catania", "description": "Via Fiamingo, 19, Catania (CT)", "timestamp": null, "begin": null, "end": null, "altitudeMode": null, "tessellate": -1.0, "extrude": 0.0, "visibility": -1.0, "drawOrder": null, "icon": null }, "geometry": { "type": "Point", "coordinates": [ 15.08978618903612, 37.51253834526495, 0.0 ] } },
{ "type": "Feature", "properties": { "Name": "UPM Modica", "description": "Via Nazionale 224\/3, Modica (RG)", "timestamp": null, "begin": null, "end": null, "altitudeMode": null, "tessellate": -1.0, "extrude": 0.0, "visibility": -1.0, "drawOrder": null, "icon": null }, "geometry": { "type": "Point", "coordinates": [ 14.76514367292353, 36.846142193511, 0.0 ] } },
{ "type": "Feature", "properties": { "Name": "UPM Marsala", "description": "Via Mario Nuccio, 78, Marsala (TP)", "timestamp": null, "begin": null, "end": null, "altitudeMode": null, "tessellate": -1.0, "extrude": 0.0, "visibility": -1.0, "drawOrder": null, "icon": null }, "geometry": { "type": "Point", "coordinates": [ 12.43684014446309, 37.795139941524347, 0.0 ] } },
{ "type": "Feature", "properties": { "Name": "UPM Città di Castello", "description": "Via San Florido, 58, Città di Castello (PG)", "timestamp": null, "begin": null, "end": null, "altitudeMode": null, "tessellate": -1.0, "extrude": 0.0, "visibility": -1.0, "drawOrder": null, "icon": null }, "geometry": { "type": "Point", "coordinates": [ 12.23705517488445, 43.455065632089642, 0.0 ] } },
{ "type": "Feature", "properties": { "Name": "UPM Perugia", "description": "Via Benedetto Bonfigli, Perugia (PG)", "timestamp": null, "begin": null, "end": null, "altitudeMode": null, "tessellate": -1.0, "extrude": 0.0, "visibility": -1.0, "drawOrder": null, "icon": null }, "geometry": { "type": "Point", "coordinates": [ 12.39321410019155, 43.104610700216973, 0.0 ] } },
{ "type": "Feature", "properties": { "Name": "UPM Foggia (??)", "description": "Via Degli Aviatori, Foggia (FG)", "timestamp": null, "begin": null, "end": null, "altitudeMode": null, "tessellate": -1.0, "extrude": 0.0, "visibility": -1.0, "drawOrder": null, "icon": null }, "geometry": { "type": "Point", "coordinates": [ 15.544581200406039, 41.448454331777583, 0.0 ] } },
{ "type": "Feature", "properties": { "Name": "UPM Giffoni Valle Piana", "description": "Parco Regionale dei Monti Piacentini, Via Roma, 12, Giffone Valle Piana (SA)", "timestamp": null, "begin": null, "end": null, "altitudeMode": null, "tessellate": -1.0, "extrude": 0.0, "visibility": -1.0, "drawOrder": null, "icon": null }, "geometry": { "type": "Point", "coordinates": [ 14.93961637101488, 40.719853898311513, 0.0 ] } },
{ "type": "Feature", "properties": { "Name": "UPM Salerno", "description": "Via zara, 22-24, Salerno (SA)", "timestamp": null, "begin": null, "end": null, "altitudeMode": null, "tessellate": -1.0, "extrude": 0.0, "visibility": -1.0, "drawOrder": null, "icon": null }, "geometry": { "type": "Point", "coordinates": [ 14.7691722001084, 40.678639299973213, 0.0 ] } },
{ "type": "Feature", "properties": { "Name": "UPM Reggio Calabria", "description": "Via E. Cuzzocrea, 23, Reggio di Calabria (RC)", "timestamp": null, "begin": null, "end": null, "altitudeMode": null, "tessellate": -1.0, "extrude": 0.0, "visibility": -1.0, "drawOrder": null, "icon": null }, "geometry": { "type": "Point", "coordinates": [ 15.647772100552601, 38.10475950101798, 0.0 ] } },
{ "type": "Feature", "properties": { "Name": "UPM Firenze", "description": "Via dei Pilastri, 10, Firenze (FI)", "timestamp": null, "begin": null, "end": null, "altitudeMode": null, "tessellate": -1.0, "extrude": 0.0, "visibility": -1.0, "drawOrder": null, "icon": null }, "geometry": { "type": "Point", "coordinates": [ 11.265983020176099, 43.771926585179308, 0.0 ] } },
{ "type": "Feature", "properties": { "Name": "UPM Forlimpopoli", "description": "Via Porta Rossana, 1, Forlimpopoli (FC)", "timestamp": null, "begin": null, "end": null, "altitudeMode": null, "tessellate": -1.0, "extrude": 0.0, "visibility": -1.0, "drawOrder": null, "icon": null }, "geometry": { "type": "Point", "coordinates": [ 12.128403340358171, 44.187832665837973, 0.0 ] } },
{ "type": "Feature", "properties": { "Name": "Ma-Pi Center, Mae Lao Hospital", "description": "Yothathikan, Chiang Rai, Thailand", "timestamp": null, "begin": null, "end": null, "altitudeMode": null, "tessellate": -1.0, "extrude": 0.0, "visibility": -1.0, "drawOrder": null, "icon": null }, "geometry": { "type": "Point", "coordinates": [ 99.739515975836554, 19.76625666907433, 0.0 ] } }
]
}
